[
  {
    "Name": "Abcd",
    "Gpd": 8,
    "P2pChange": 26,
    "Lng": -73.275431,
    "Lat": 18.311194
  },
  {
    "Name": "Bcde",
    "Gpd": 15,
    "P2pChange": 8,
    "Lng": -71.761494,
    "Lat": 18.144288
  },
  {
    "Name": "Cdef",
    "Gpd": 24,
    "P2pChange": -6,
    "Lng": -71.984929,
    "Lat": 18.963788
  },
  {
    "Name": "Defg",
    "Gpd": 35,
    "P2pChange": -22,
    "Lng": -72.220762,
    "Lat": 19.530006
  },
  {
    "Name": "Nounca",
    "Gpd": 46,
    "P2pChange": 22,
    "Lng": -72.43063,
    "Lat": 18.74148
  },
  {
    "Name": "kenken",
    "Gpd": 41,
    "P2pChange": 15,
    "Lng": -72.25597,
    "Lat": 18.61263
  }

]
