[{"SchoolName":"Mamaliga et Petit poupouche","Gallons":"168","Lat":"18.798685","Lng":"-72.502845","NoOfStudents":null},{"SchoolName":"National corail","Gallons":"72","Lat":"18.79708","Lng":"-72.54106","NoOfStudents":null},{"SchoolName":"Congréganiste de cabarèt","Gallons":"2560","Lat":"18.734652","Lng":"-72.419636","NoOfStudents":null},{"SchoolName":"Coura de cortade","Gallons":"252","Lat":"18.775758","Lng":"-72.519617","NoOfStudents":null},{"SchoolName":"College Moderne  ","Gallons":"360","Lat":"18.7358016","Lng":"-72.41595","NoOfStudents":null},{"SchoolName":"College L'Enfant Jésus","Gallons":"364","Lat":"19.55070","Lng":"-71.72009","NoOfStudents":null},{"SchoolName":"College de L'Union","Gallons":"360","Lat":"19.54949","Lng":"-71.71970","NoOfStudents":null},{"SchoolName":"École Baptiste Siloe de Quartier Morin","Gallons":"1844","Lat":"19.69911","Lng":"-72.15591","NoOfStudents":null},{"SchoolName":"college Bethesda","Gallons":null,"Lat":"18.73975","Lng":"-72.41918","NoOfStudents":null},{"SchoolName":"Bernigard","Gallons":"920","Lat":"18.778035","Lng":"-72.517016","NoOfStudents":null},{"SchoolName":"centre de formation classique de Cabaret ","Gallons":"420","Lat":"18.734316","Lng":"-72.417419","NoOfStudents":null},{"SchoolName":"Ecole Presbyterate Notre Dame de Lourdes","Gallons":null,"Lat":"18.58018","Lng":"-72.33248","NoOfStudents":null},{"SchoolName":"Armée du salut de saintard","Gallons":"320","Lat":"18.823946","Lng":"-72.54786","NoOfStudents":null},{"SchoolName":"Institution Souvenir","Gallons":null,"Lat":"18.771694","Lng":"-72.512458","NoOfStudents":null},{"SchoolName":"Boiron Tonner","Gallons":"1120","Lat":"18.597511","Lng":"-72.260117","NoOfStudents":null},{"SchoolName":"Centre de Formation Classique et Pratique","Gallons":"24","Lat":"19.55631","Lng":"-71.72007","NoOfStudents":null},{"SchoolName":"College Jérusalem de Ti-Laurier","Gallons":"140","Lat":"19.55889","Lng":"-71.72014","NoOfStudents":null},{"SchoolName":"Centre Scolaire Jardin Fleuri","Gallons":"152","Lat":"18.742003","Lng":"-72.42645","NoOfStudents":null},{"SchoolName":"college andre grene","Gallons":"280","Lat":"18.57887","Lng":"-72.33779","NoOfStudents":null},{"SchoolName":"Frère SaintVil","Gallons":"432","Lat":"18.81237","Lng":"-72.53898","NoOfStudents":null},{"SchoolName":"École Emmanuel nan vilaj ","Gallons":"1200","Lat":"19.58668","Lng":"-72.16592","NoOfStudents":null},{"SchoolName":"Institution Cacique Henry de limonade","Gallons":"160","Lat":"19.67002","Lng":"-72.12325","NoOfStudents":null},{"SchoolName":"evangelique de ponce","Gallons":"492","Lat":"18.81136","Lng":"-72.52898","NoOfStudents":null},{"SchoolName":"Sœur de pavillon St Antoine","Gallons":"240","Lat":"19.66780","Lng":"-72.12415","NoOfStudents":null},{"SchoolName":"Bel enfant","Gallons":"616","Lat":"18.79143","Lng":"-72.51378","NoOfStudents":null},{"SchoolName":"College de L'Etoile","Gallons":"204","Lat":"19.55049","Lng":"-71.72199","NoOfStudents":null},{"SchoolName":"Foyer Catherine Flon ","Gallons":"128","Lat":"18.821825","Lng":"-72.56824","NoOfStudents":null},{"SchoolName":"École Nationale de kfou des pères ","Gallons":"496","Lat":"19.68528","Lng":"-72.20698","NoOfStudents":null},{"SchoolName":"college mixte Nazareth de saintard","Gallons":"896","Lat":"18.820028","Lng":"-72.56558","NoOfStudents":null},{"SchoolName":"Ecole La Principale ","Gallons":"296","Lat":"19.52339","Lng":"-71.73781","NoOfStudents":null},{"SchoolName":"College La Boussole","Gallons":"144","Lat":"19.52089","Lng":"-71.72783","NoOfStudents":null},{"SchoolName":"Lycée National François Capois","Gallons":"1500","Lat":"19.66974","Lng":"-72.10822","NoOfStudents":null},{"SchoolName":"Soleil Divin","Gallons":"348","Lat":"18.799204","Lng":"-72.542164","NoOfStudents":null},{"SchoolName":"ecole berniga","Gallons":null,"Lat":"18.778035","Lng":"-72.517016","NoOfStudents":null},{"SchoolName":"Gro parc","Gallons":"656","Lat":"18.792911","Lng":"-72.55516","NoOfStudents":null},{"SchoolName":"Ecole nationale de Ponce","Gallons":null,"Lat":"18.81136","Lng":"-72.52898","NoOfStudents":null},{"SchoolName":"Institution Sheshe de Limonade","Gallons":"400","Lat":"19.67018","Lng":"-72.12911","NoOfStudents":null},{"SchoolName":"Soeur Marlene","Gallons":"1120","Lat":"18.616668","Lng":"-72.244352","NoOfStudents":null},{"SchoolName":"College George Muller","Gallons":"92","Lat":"19.54809","Lng":"-71.72012","NoOfStudents":null},{"SchoolName":"College Adventiste Mixte de Ouanaminthe","Gallons":null,"Lat":"19.54439","Lng":"-71.72781","NoOfStudents":null},{"SchoolName":"Henry Christophe ","Gallons":"240","Lat":"19.67214","Lng":"-72.12583","NoOfStudents":null},{"SchoolName":"École Évangélique Philadelphie chastenoir","Gallons":"504","Lat":"19.72251","Lng":"-72.16592","NoOfStudents":null},{"SchoolName":"Ecole St. François Xavier F.I.C.","Gallons":"48","Lat":"19.55067","Lng":"-71.71634","NoOfStudents":null},{"SchoolName":"\nÉcole Dieu de paix de la molere","Gallons":"792","Lat":"19.68912","Lng":"-72.1356","NoOfStudents":null},{"SchoolName":"Lycée national de Cabaret ","Gallons":"560","Lat":"18.735130","Lng":"-72.417730","NoOfStudents":null},{"SchoolName":"Institution Univers de Ouanaminthe","Gallons":"356","Lat":"19.55361","Lng":"-71.72007","NoOfStudents":null},{"SchoolName":"Jean Moleste Clement ","Gallons":"1280","Lat":"18.595039","Lng":"-72.245519","NoOfStudents":null},{"SchoolName":"Mme Magdala LaCroix","Gallons":"1440","Lat":"18.598377","Lng":"-72.257950","NoOfStudents":null},{"SchoolName":"La Renaissance ","Gallons":"192","Lat":"18.84964","Lng":"-72.57849","NoOfStudents":null},{"SchoolName":"Institution Mixte Union des Apotres","Gallons":"660","Lat":"18.58665","Lng":"-72.33465","NoOfStudents":null},{"SchoolName":"Eurika","Gallons":"288","Lat":"18.791405","Lng":"-72.51406","NoOfStudents":null},{"SchoolName":"École Eben_Ezer Limonade","Gallons":"660","Lat":"19.66842","Lng":"-72.12383","NoOfStudents":null},{"SchoolName":"Institut la St famille de cadush","Gallons":"1120","Lat":"19.72558","Lng":"-72.18354","NoOfStudents":null},{"SchoolName":"College Jean Paul II","Gallons":"228","Lat":"19.54809","Lng":"-71.72010","NoOfStudents":null},{"SchoolName":"Ecole mixte le chandelier D'or de Williamson","Gallons":"76","Lat":"18.84624","Lng":"-72.57874","NoOfStudents":null},{"SchoolName":"École Nationale Bois l'Etat","Gallons":"1440","Lat":"19.66534","Lng":"-72.12559","NoOfStudents":null},{"SchoolName":"College Robertica","Gallons":"960","Lat":"18.822535","Lng":"-72.54592833","NoOfStudents":null},{"SchoolName":"Ecole Nationale de Foveau","Gallons":"440","Lat":"18.72347","Lng":"-72.42535","NoOfStudents":null},{"SchoolName":"Nationale du drapeau","Gallons":"808","Lat":"18.77072","Lng":"-72.51419","NoOfStudents":null},{"SchoolName":"École Nle de Saintard","Gallons":null,"Lat":"18.82007","Lng":"-72.56760","NoOfStudents":null},{"SchoolName":"Sacre coeur","Gallons":"368","Lat":"18.79770","Lng":"-72.51804","NoOfStudents":null},{"SchoolName":"Nationale St Pierrre","Gallons":null,"Lat":"18.77106","Lng":"-72.51239","NoOfStudents":null},{"SchoolName":"Leo Garvens","Gallons":"256","Lat":"18.88281","Lng":"-72.56911","NoOfStudents":null},{"SchoolName":"École Nationale Maurice Dartique","Gallons":"996","Lat":"19.68528","Lng":"-72.20698","NoOfStudents":null},{"SchoolName":"College Les Pédagogues","Gallons":null,"Lat":"19.56152","Lng":"-71.72971","NoOfStudents":null},{"SchoolName":"College Espoir Chrétien","Gallons":"172","Lat":"19.55067","Lng":"-71.71634","NoOfStudents":null},{"SchoolName":"Le Cabaretin","Gallons":"400","Lat":"18.73526","Lng":"-72.42149","NoOfStudents":null},{"SchoolName":"Ecole Gédéons Missionnaires de Ouanaminthe","Gallons":"376","Lat":"19.54439","Lng":"-71.72781","NoOfStudents":null},{"SchoolName":"Ecole Maria Gorrhetti","Gallons":null,"Lat":"18.82624","Lng":"-72.58874","NoOfStudents":null},{"SchoolName":"institution Maria Montessori","Gallons":"80","Lat":"19.67139","Lng":"-72.12344","NoOfStudents":null},{"SchoolName":"Mathé Enite Floréal","Gallons":"224","Lat":"18.57887","Lng":"-72.33780","NoOfStudents":null},{"SchoolName":"École Pavillon St Antoine ","Gallons":"960","Lat":"19.66984","Lng":"-72.12597","NoOfStudents":null},{"SchoolName":"College Espoir Pour Haitj","Gallons":null,"Lat":"19.54809","Lng":"-71.72011","NoOfStudents":null},{"SchoolName":"Institution Sacré cœur","Gallons":"600","Lat":"19.67404","Lng":"-72.12271","NoOfStudents":null},{"SchoolName":"Collège Nazaréen","Gallons":"380","Lat":"18.73809","Lng":"-72.42078","NoOfStudents":null},{"SchoolName":"Ecole Nationale de Vignier","Gallons":null,"Lat":"18.77560","Lng":"-72.47826","NoOfStudents":null},{"SchoolName":"Ecole Christ Redempteur de Luly","Gallons":"340","Lat":"18.834918","Lng":"-72.5753916","NoOfStudents":null},{"SchoolName":"Sofenget","Gallons":"280","Lat":"18.77996","Lng":"-72.51776","NoOfStudents":null},{"SchoolName":"Ecole communauté D'abraham de saintard","Gallons":"128","Lat":"18.823224","Lng":"-72.5543416","NoOfStudents":null},{"SchoolName":"college mixte modene de saintard","Gallons":"240","Lat":"18.8304626","Lng":"-72.5587471","NoOfStudents":null},{"SchoolName":"Succès School","Gallons":"320","Lat":"18.84152","Lng":"-72.57316","NoOfStudents":null},{"SchoolName":"Institution Mimi'S","Gallons":null,"Lat":"18.773934","Lng":"-72.507920","NoOfStudents":null},{"SchoolName":"famille unie","Gallons":"240","Lat":"18.837654","Lng":"-72.574497","NoOfStudents":null},{"SchoolName":"École Porte Ouverte","Gallons":"80","Lat":"19.67128","Lng":"-72.12708","NoOfStudents":null},{"SchoolName":"E. Bethel","Gallons":null,"Lat":"18.76978","Lng":"-72.51424","NoOfStudents":null},{"SchoolName":"École Nle de Luly","Gallons":"620","Lat":"18.83507","Lng":"-72.57536","NoOfStudents":null},{"SchoolName":"Boisrond Tonnerre","Gallons":null,"Lat":"18.77224","Lng":"-72.51550","NoOfStudents":null},{"SchoolName":"École Nouvelle Esperence","Gallons":"880","Lat":"19.67415","Lng":"-72.12291","NoOfStudents":null},{"SchoolName":"Lise Desrosiers","Gallons":"524","Lat":"18.81264","Lng":"-72.53371","NoOfStudents":null},{"SchoolName":"Ecole nationale de corail","Gallons":"112","Lat":"18.79708","Lng":"-72.54106","NoOfStudents":null},{"SchoolName":"ecole Nationale de caduch","Gallons":"1164","Lat":"19.67576","Lng":"-72.20698","NoOfStudents":null},{"SchoolName":"École National de  galman","Gallons":"1152","Lat":"19.68627","Lng":"-72.20496","NoOfStudents":null},{"SchoolName":"Ecole National de saintard","Gallons":"384","Lat":"18.82004","Lng":"-72.56552","NoOfStudents":null},{"SchoolName":"Ecole communautaire ministère de Jesus Christ ","Gallons":"480","Lat":"18.839047","Lng":"-72.576313","NoOfStudents":null},{"SchoolName":"École Nationale De Morne Pele","Gallons":"552","Lat":"19.65595","Lng":"-72.18554","NoOfStudents":null},{"SchoolName":"École Mont Sinaï galman","Gallons":"736","Lat":"19.73151","Lng":"-72.16591","NoOfStudents":null},{"SchoolName":"École Coeur de Jésus Madeline","Gallons":"1356","Lat":"19.72457","Lng":"-72.18353","NoOfStudents":null},{"SchoolName":"Mixte Maranatha de carfour de carfour Damier","Gallons":"312","Lat":"18.737317","Lng":"-72.408597","NoOfStudents":null},{"SchoolName":"École Nationale Quartier Moriin","Gallons":"720","Lat":"19.69795","Lng":"-72.15859","NoOfStudents":null},{"SchoolName":"Lycée Charles Belai","Gallons":"960","Lat":"18.79291","Lng":"-72.54005","NoOfStudents":null},{"SchoolName":"College La Patience","Gallons":null,"Lat":"19.55154","Lng":"-71.72066","NoOfStudents":null},{"SchoolName":"Coafar","Gallons":null,"Lat":"18.777043","Lng":"-72.510580","NoOfStudents":null},{"SchoolName":"CENA","Gallons":"464","Lat":"18.794325","Lng":"-72.514355","NoOfStudents":null},{"SchoolName":"EMEP","Gallons":"688","Lat":"18.811179","Lng":"-72.527985","NoOfStudents":null},{"SchoolName":"patience d'ange","Gallons":"160","Lat":"18.735732","Lng":"-72.417106","NoOfStudents":null},{"SchoolName":"Ecole Maternelle St.- François","Gallons":"176","Lat":"19.55049","Lng":"-71.72199","NoOfStudents":null},{"SchoolName":"Cosca","Gallons":"420","Lat":"18.73454","Lng":"-72.42014","NoOfStudents":null},{"SchoolName":"Notre Dame","Gallons":null,"Lat":"19.67127","Lng":"-72.12705","NoOfStudents":null},{"SchoolName":"Concordia","Gallons":null,"Lat":"18.78845","Lng":"-72.53478","NoOfStudents":null},{"SchoolName":"École Daniel Petit Frere","Gallons":"800","Lat":"19.67089","Lng":"-72.12614","NoOfStudents":null},{"SchoolName":"Gloria ","Gallons":"160","Lat":"18.7378316","Lng":"-72.42093","NoOfStudents":null},{"SchoolName":"Baptists Eben Ezer","Gallons":"552","Lat":"18.7775","Lng":"-72.51707","NoOfStudents":null},{"SchoolName":"école nationale chabanon","Gallons":"80","Lat":"19.70860","Lng":"-72.09956","NoOfStudents":null},{"SchoolName":"Dumarsais Estime","Gallons":"400","Lat":"18.77103","Lng":"-72.5142","NoOfStudents":null},{"SchoolName":"College Notre Dame du Mont Carmel","Gallons":"700","Lat":"18.73554","Lng":"-72.41962","NoOfStudents":null},{"SchoolName":"College APEK ( IALSI )","Gallons":null,"Lat":"19.55154","Lng":"-71.72067","NoOfStudents":null},{"SchoolName":"École Union chrétienne ","Gallons":"1680","Lat":"19.69895","Lng":"-72.21697","NoOfStudents":null},{"SchoolName":"College Malcom X","Gallons":null,"Lat":"19.54949","Lng":"-71.71970","NoOfStudents":null},{"SchoolName":"steide James woodland","Gallons":"392","Lat":"18.837654","Lng":"-72.574497","NoOfStudents":null}]